City_ID,City,Lat,Lng,Max Temp,Humidity,Cloudiness,Wind Speed,Country,Date
0,polyarnyy,69.1989,33.4478,15.7,64,16,11.69,RU,1720336334
1,al majaridah,19.1236,41.9111,37.11,19,100,2.8,SA,1720336334
2,bredasdorp,-34.5322,20.0403,10.68,79,23,5.47,ZA,1720336334
3,bilibino,68.0546,166.4372,7.91,88,100,1.93,RU,1720336334
4,port-aux-francais,-49.35,70.2167,0.82,74,73,12.27,TF,1720336335
5,edinburgh of the seven seas,-37.0676,-12.3116,12.83,88,100,19.97,SH,1720336335
6,cidade velha,14.9167,-23.6167,23.26,83,40,0.51,CV,1720336335
7,koryazhma,61.3143,47.1691,21.74,45,0,3.03,RU,1720336335
8,adamstown,-25.066,-130.1015,20.15,68,100,10.7,PN,1720336335
9,margaret river,-33.95,115.0667,15.84,55,86,8.66,AU,1720336162
10,west island,-12.1568,96.8225,28.99,79,40,8.23,CC,1720336336
11,punta arenas,-53.15,-70.9167,-1.94,93,75,4.12,CL,1720336337
12,akureyri,65.6835,-18.0878,4.96,87,100,2.06,IS,1720336337
13,shiloh,38.5614,-89.8973,22.5,87,0,0.0,US,1720336337
14,benguela,-12.5763,13.4055,21.04,78,9,1.19,AO,1720336337
15,albany,42.6001,-73.9662,21.55,83,21,1.49,US,1720336337
16,port elizabeth,-33.918,25.5701,19.16,22,0,1.03,ZA,1720336338
17,ixtapa,20.7,-105.2,27.35,85,100,0.53,MX,1720336338
18,anadyr,64.75,177.4833,13.28,76,100,6.0,RU,1720336338
19,bethel,41.3712,-73.414,24.17,90,100,0.0,US,1720336338
20,hawaiian paradise park,19.5933,-154.9731,23.74,83,100,2.06,US,1720336338
21,hasaki,35.7333,140.8333,36.27,82,100,4.68,JP,1720336338
22,college,64.8569,-147.8028,9.99,88,75,3.09,US,1720336339
23,whitehorse,60.7161,-135.0538,11.72,80,75,2.15,CA,1720336280
24,banda aceh,5.5577,95.3222,26.67,81,100,5.32,ID,1720336339
25,hithadhoo,-0.6,73.0833,28.8,73,99,4.78,MV,1720336280
26,carnarvon,-24.8667,113.6333,19.09,83,98,2.36,AU,1720336339
27,fort mcmurray,56.7268,-111.381,16.77,77,100,2.06,CA,1720336339
28,puerto natales,-51.7236,-72.4875,0.45,97,100,0.95,CL,1720336340
29,isafjordur,66.0755,-23.124,8.33,58,66,1.18,IS,1720336340
30,shevchenkove,49.6959,37.1735,24.24,45,0,6.42,UA,1720336340
31,tolanaro,-25.0319,46.9987,23.04,56,20,7.2,MG,1720336340
32,toliara,-23.35,43.6667,22.93,50,1,3.66,MG,1720336340
33,hayvoron,48.3396,29.8679,26.01,35,47,2.88,UA,1720336340
34,tsiombe,-25.3,45.4833,21.98,54,7,6.03,MG,1720336341
35,yellowknife,62.456,-114.3525,11.61,74,72,1.57,CA,1720336269
36,padampur,29.6833,73.6167,35.78,52,78,5.86,IN,1720336341
37,battambang,13.1027,103.1982,34.86,48,100,1.77,KH,1720336341
38,ushuaia,-54.8,-68.3,-6.47,88,86,2.43,AR,1720336341
39,ust-nera,64.5667,143.2,7.32,96,100,2.07,RU,1720336341
40,mecca,21.4267,39.8261,38.2,15,100,2.69,SA,1720336342
41,sinabang,2.4803,96.3801,30.64,63,41,3.8,ID,1720336342
42,ilulissat,69.2167,-51.1,5.01,93,20,0.0,GL,1720336342
43,n'zeto,-7.2312,12.8666,22.32,80,90,2.98,AO,1720336342
44,bathsheba,13.2167,-59.5167,28.34,78,20,6.69,BB,1720336342
45,petropavlovsk-kamchatsky,53.0452,158.6483,15.33,67,0,4.0,RU,1720336342
46,los chavez,34.727,-106.7384,25.97,12,0,2.01,US,1720336343
47,klyuchi,52.2667,79.1667,28.07,40,60,2.78,RU,1720336343
48,corner brook,48.9667,-57.9484,16.09,99,100,1.47,CA,1720336343
49,marang,5.2056,103.2059,30.44,67,80,3.61,MY,1720336343
50,port alfred,-33.5906,26.891,18.18,27,98,4.77,ZA,1720336343
51,tiksi,71.6872,128.8694,4.82,71,37,3.04,RU,1720336343
52,dunedin,-45.8742,170.5036,9.89,74,97,5.81,NZ,1720336066
53,ninghai,29.2892,121.4247,33.52,62,35,4.83,CN,1720336344
54,xinyuan,37.3,99.0,14.71,62,98,1.86,CN,1720336344
55,sitka,57.0531,-135.33,12.94,76,75,4.63,US,1720336166
56,gamay,12.3854,125.2979,30.5,68,100,3.04,PH,1720336344
57,waitangi,-43.9535,-176.5597,7.12,84,22,4.92,NZ,1720336345
58,yuzhno-kurilsk,44.0306,145.8556,15.0,98,100,3.07,RU,1720336345
59,port mathurin,-19.6833,63.4167,23.25,75,60,7.58,MU,1720336345
60,notodden,59.5594,9.2585,14.18,89,100,1.9,NO,1720336345
61,grytviken,-54.2811,-36.5092,-3.54,67,20,2.79,GS,1720336345
62,udachny,66.4167,112.4,24.5,49,100,3.86,RU,1720336345
63,kodiak,57.79,-152.4072,11.73,82,0,3.09,US,1720336345
64,kapuskasing,49.4169,-82.4331,17.0,82,0,2.06,CA,1720336346
65,port macquarie,-31.4333,152.9167,15.5,91,67,0.45,AU,1720336195
66,qaqortoq,60.7167,-46.0333,4.05,98,96,0.44,GL,1720336346
67,nguigmi,14.2495,13.1092,29.77,55,98,6.45,NE,1720336346
68,kununurra,-15.7667,128.7333,31.99,33,30,2.57,AU,1720336315
69,panaba,21.2833,-88.2667,24.09,95,100,2.22,MX,1720336346
70,zhangjiakou,40.81,114.8794,29.84,33,100,1.07,CN,1720336346
71,iskateley,67.6803,53.1512,15.26,77,100,5.25,RU,1720336347
72,sur,22.5667,59.5289,40.35,27,73,1.58,OM,1720336347
73,ta`u,-14.2336,-169.5144,27.29,78,22,2.52,AS,1720336347
74,novyy urengoy,66.0833,76.6333,19.54,49,9,6.55,RU,1720336347
75,bamboo flat,11.7,92.7167,31.05,74,40,5.14,IN,1720336347
76,alice springs,-23.7,133.8833,21.75,49,20,2.06,AU,1720336263
77,binghamton,42.0987,-75.918,20.51,90,0,1.54,US,1720336348
78,trinidad,-14.8333,-64.9,19.88,55,100,1.76,BO,1720336348
79,blackmans bay,-43.0167,147.3167,7.07,90,2,0.8,AU,1720336348
80,victorica,-36.2151,-65.4359,1.24,49,5,2.07,AR,1720336348
81,avarua,-21.2078,-159.775,26.03,94,75,3.09,CK,1720336260
82,ribeira grande,38.5167,-28.7,22.65,94,40,4.63,PT,1720336348
83,ariano irpino-martiri,41.1489,15.0833,22.75,39,0,2.13,IT,1720336349
84,amga,60.8953,131.9608,21.11,48,79,1.76,RU,1720336349
85,filingue,14.3521,3.3168,29.44,56,97,6.64,NE,1720336349
86,iqaluit,63.7506,-68.5145,3.85,86,75,0.0,CA,1720336349
87,covington,39.0837,-84.5086,20.26,91,0,2.06,US,1720336349
88,bayganin,48.6947,55.8742,30.38,40,0,6.08,KZ,1720336350
89,gunjur,13.2019,-16.7339,26.04,89,75,1.54,GM,1720336350
90,tofol,5.3248,163.0078,25.88,94,100,1.03,FM,1720336350
91,talnakh,69.4865,88.3972,22.22,43,8,8.6,RU,1720336350
92,westport,41.1415,-73.3579,24.67,88,40,0.0,US,1720336350
93,evanston,42.0411,-87.6901,20.06,80,0,0.0,US,1720336350
94,lihue,21.9789,-159.3672,24.77,79,20,5.14,US,1720336351
95,gadzhiyevo,69.2551,33.3362,16.19,62,22,11.78,RU,1720336351
96,la sarre,48.8002,-79.1996,13.72,94,8,1.76,CA,1720336351
97,afaahiti,-17.75,-149.2833,23.93,79,68,9.08,PF,1720336270
98,nar'yan-mar,67.6713,53.087,15.28,77,100,5.29,RU,1720336351
99,cafayate,-26.073,-65.9761,5.76,64,0,1.23,AR,1720336351
100,longyearbyen,78.2186,15.6401,6.91,49,0,8.23,SJ,1720336352
101,swakopmund,-22.6833,14.5333,12.77,90,0,1.34,NA,1720336352
102,malvan,16.0667,73.4667,27.53,79,100,5.99,IN,1720336352
103,linxia chengguanzhen,35.6003,103.2064,16.76,77,100,0.92,CN,1720336352
104,fale old settlement,-9.3852,-171.2468,28.16,76,15,3.37,TK,1720336352
105,kailua-kona,19.6406,-155.9956,23.49,84,85,2.58,US,1720336115
106,coquimbo,-29.9533,-71.3436,9.85,93,100,1.54,CL,1720336352
107,kone,-21.0595,164.8658,19.88,57,69,2.28,NC,1720336353
108,nova sintra,14.8667,-24.7167,23.51,86,100,0.55,CV,1720336353
109,codrington,-38.2667,141.9667,12.38,63,0,5.48,AU,1720336353
110,khorixas,-20.3667,14.9667,16.2,33,0,1.54,NA,1720336353
111,lensk,60.7253,114.9278,27.78,26,7,3.64,RU,1720336353
112,sungai raya,0.7,108.9,27.21,79,95,2.84,ID,1720336354
113,howrah,22.5892,88.3103,32.0,79,75,3.6,IN,1720336354
114,naze,28.3667,129.4833,29.51,72,34,2.85,JP,1720336354
115,puerto ayora,-0.7393,-90.3518,19.75,98,15,3.01,EC,1720336354
116,tindouf,27.6711,-8.1474,22.25,46,0,8.23,DZ,1720336354
117,ngaoundere,7.3167,13.5833,20.08,78,100,0.85,CM,1720336247
118,carbonear,47.7332,-53.2148,15.97,89,100,4.84,CA,1720336355
119,duong dong,10.2167,103.9667,31.0,79,40,3.09,VN,1720336355
120,krasnyy yar,46.5331,48.3456,36.96,19,16,7.06,RU,1720336355
121,nagqu,31.5,92.0,14.63,54,100,6.71,CN,1720336355
122,palo santo,-25.5633,-59.3378,9.17,76,100,2.2,AR,1720336355
123,invercargill,-46.4,168.35,10.01,89,100,4.02,NZ,1720336143
124,guerrero negro,27.9769,-114.0611,19.97,84,0,3.53,MX,1720336356
125,nizhniy odes,63.6445,54.856,23.4,63,100,3.09,RU,1720336356
126,cabo san lucas,22.8909,-109.9124,25.42,64,15,5.36,MX,1720336140
127,katsuren-haebaru,26.3369,127.8719,29.21,83,40,2.57,JP,1720336356
128,saint-philippe,-21.3585,55.7679,23.77,68,3,2.38,RE,1720336356
129,olonkinbyen,70.9221,-8.7187,1.17,88,1,4.2,SJ,1720336356
130,lebu,-37.6167,-73.65,6.81,90,3,3.72,CL,1720336356
131,hermanus,-34.4187,19.2345,14.33,79,70,13.5,ZA,1720336357
132,mwinilunga,-11.7358,24.4293,19.3,26,70,2.09,ZM,1720336357
133,lompoc,34.6391,-120.4579,13.07,95,100,1.54,US,1720336357
134,boguchany,58.3814,97.4531,27.99,56,100,1.74,RU,1720336242
135,aasiaat,68.7098,-52.8699,2.73,94,100,2.72,GL,1720336357
136,nova xavantina,-14.6667,-52.35,18.7,57,0,0.49,BR,1720336357
137,saipan,15.1355,145.701,32.39,66,20,6.17,MP,1720336358
138,karaidel',55.8337,56.9069,27.01,51,58,1.64,RU,1720336358
139,constantia,44.1833,28.65,29.28,51,0,6.09,RO,1720336358
140,antofagasta,-23.65,-70.4,12.6,85,47,2.44,CL,1720336358
141,new norfolk,-42.7826,147.0587,7.72,74,0,0.7,AU,1720336358
142,farafangana,-22.8167,47.8333,21.57,55,0,3.44,MG,1720336359
143,port blair,11.6667,92.75,31.02,74,40,5.14,IN,1720336359
144,nuuk,64.1835,-51.7216,5.97,79,100,6.2,GL,1720336359
145,port lincoln,-34.7333,135.8667,12.97,88,100,6.38,AU,1720336273
146,kirensk,57.7853,108.1119,32.99,23,9,0.62,RU,1720336359
147,sisimiut,66.9395,-53.6735,5.02,90,100,1.78,GL,1720336359
148,murun-kuren,49.6342,100.1625,28.34,30,20,2.16,MN,1720336359
149,hamilton,39.1834,-84.5333,19.99,90,0,2.06,US,1720336360
150,wailua homesteads,22.0669,-159.378,24.44,83,20,5.14,US,1720336326
151,celestun,20.8667,-90.4,26.28,86,100,1.28,MX,1720336360
152,coahuayana de hidalgo,18.7,-103.6583,24.55,90,100,1.24,MX,1720336360
153,kilju,40.9642,129.3278,24.98,77,66,0.76,KP,1720336360
154,kourou,5.1552,-52.6478,25.03,95,100,2.14,GF,1720336360
155,georgetown,5.4112,100.3354,29.97,74,40,3.6,MY,1720336361
156,puerto eldorado,-26.4084,-54.6946,12.71,100,99,1.03,AR,1720336361
157,papatowai,-46.5619,169.4708,9.05,85,100,8.01,NZ,1720336361
158,tromso,69.6496,18.957,11.01,87,100,4.12,NO,1720336361
159,atafu village,-8.5421,-172.5159,28.33,75,36,3.56,TK,1720336262
160,tucuma,-0.1833,-50.05,24.57,91,100,2.34,BR,1720336362
161,greymouth,-42.4667,171.2,7.18,91,1,1.55,NZ,1720336362
162,boca suno,-0.7167,-77.1333,20.26,99,100,0.74,EC,1720336362
163,luanda,-8.8368,13.2343,21.65,75,55,2.24,AO,1720336362
164,fisterra,42.9049,-9.2629,12.79,74,24,2.22,ES,1720336362
165,port augusta,-32.5,137.7667,15.32,72,85,1.78,AU,1720336362
166,shahrud,36.4182,54.9763,31.08,14,4,4.66,IR,1720336363
167,taulaga,-11.0553,-171.0883,27.89,77,100,2.37,AS,1720336363
168,jiagedaqi,50.4167,124.1167,32.58,17,3,4.31,CN,1720336363
169,sokoni,-6.4333,39.55,25.56,73,85,6.03,TZ,1720336363
170,dryden,49.7833,-92.7503,18.16,77,0,3.09,CA,1720336363
171,usinsk,65.9939,57.5281,26.53,56,69,5.04,RU,1720336363
172,zungeru,9.8128,6.1558,25.99,81,100,1.95,NG,1720336364
173,mandal,25.45,74.5667,34.98,48,100,4.77,IN,1720336364
174,nova vicosa,-17.8919,-39.3719,21.59,83,28,1.82,BR,1720336364
175,noshiro,40.2039,140.0242,23.46,98,100,6.46,JP,1720336364
176,steamboat springs,40.485,-106.8317,14.72,58,0,3.6,US,1720336231
177,khash,28.2211,61.2158,35.62,7,0,10.18,IR,1720336364
178,san-pedro,4.7485,-6.6363,23.58,90,100,3.21,CI,1720336365
179,talara,-4.5772,-81.2719,19.92,80,100,7.88,PE,1720336365
180,gizo,-8.103,156.8419,26.72,83,100,9.24,SB,1720336365
181,mukalla,14.5425,49.1242,32.79,55,32,3.73,YE,1720336365
182,dudinka,69.4058,86.1778,21.55,44,3,9.46,RU,1720336365
183,bonthe,7.5264,-12.505,23.59,96,100,3.29,SL,1720336365
184,jamestown,42.097,-79.2353,19.29,92,0,0.0,US,1720336309
185,mil'kovo,55.6078,37.7956,24.68,53,6,1.46,RU,1720336366
186,nouadhibou,20.931,-17.0347,21.99,78,10,2.06,MR,1720336366
187,lazaro cardenas,17.9583,-102.2,25.42,86,4,1.43,MX,1720336366
188,nizhnevartovsk,60.9344,76.5531,21.01,43,0,5.0,RU,1720336366
189,olenino,56.2092,33.4889,21.95,52,45,5.77,RU,1720336366
190,belmonte,-15.8631,-38.8828,21.92,82,13,1.44,BR,1720336367
191,lincheng,19.9078,109.6858,30.71,68,99,4.26,CN,1720336367
192,umm kaddadah,13.6017,26.6876,30.48,40,21,6.02,SD,1720336367
193,nemuro,43.3236,145.575,14.75,99,100,4.68,JP,1720336367
194,colonia,50.9333,6.95,16.7,70,0,3.6,DE,1720336367
195,lata,40.1629,-8.3327,13.37,86,35,1.41,PT,1720336367
196,inirida,3.8653,-67.9239,22.03,98,100,0.51,CO,1720336368
197,elk city,35.412,-99.4043,24.12,83,0,5.14,US,1720336368
198,richards bay,-28.783,32.0377,16.83,32,5,5.47,ZA,1720336189
199,new plymouth,-39.0667,174.0833,12.67,100,95,4.34,NZ,1720335895
200,queenstown,-31.8976,26.8753,13.35,14,20,8.14,ZA,1720336368
201,kolwezi,-10.7148,25.4667,17.73,30,100,3.76,CD,1720336368
202,katabu,-4.9333,122.5167,29.37,64,66,2.75,ID,1720336368
203,happy valley-goose bay,53.3168,-60.3315,10.17,76,20,2.06,CA,1720336369
204,nizhneudinsk,54.9076,99.0276,30.21,39,100,2.07,RU,1720336369
205,xai-xai,-25.0519,33.6442,18.41,53,0,4.99,MZ,1720336369
206,vila velha,-20.3297,-40.2925,18.97,100,0,0.0,BR,1720336369
207,arendal,58.4615,8.7725,12.89,84,100,9.3,NO,1720336369
208,stanley,54.868,-1.6985,12.51,84,20,4.63,GB,1720336369
209,luderitz,-26.6481,15.1594,14.66,83,83,6.92,NA,1720336370
210,chibougamau,49.9168,-74.3659,10.79,93,0,0.0,CA,1720336370
211,jabor,5.921,169.6434,28.88,76,95,6.19,MH,1720336370
212,hammerfest,70.6634,23.6821,13.25,82,75,2.57,NO,1720336370
213,susanville,40.4163,-120.653,17.67,19,0,3.05,US,1720336370
214,manta,-0.95,-80.7333,23.44,88,100,4.09,EC,1720336370
215,kerikeri,-35.2268,173.9474,11.62,85,0,2.68,NZ,1720336371
216,urengoy,65.9667,78.3667,19.33,53,1,7.28,RU,1720336371
217,pelaya,8.6882,-73.6645,24.24,81,100,1.27,CO,1720336371
218,sibu,2.3,111.8167,31.28,58,71,1.43,MY,1720336371
219,parobe,-29.6286,-50.8347,10.32,99,100,0.18,BR,1720336371
220,keflavik,64.0049,-22.5624,11.95,71,0,5.14,IS,1720336371
221,kingston,17.997,-76.7936,28.53,84,75,4.12,JM,1720336372
222,roma,43.2128,-75.4557,19.85,97,0,0.0,US,1720336372
223,quellon,-43.1167,-73.6167,6.67,89,97,2.08,CL,1720336372
224,laurel bay,32.4502,-80.7848,27.95,47,0,1.54,US,1720336372
225,chabahar,25.2919,60.643,31.54,72,100,2.99,IR,1720336372
226,badger,64.8,-147.5333,9.95,90,100,3.09,US,1720336258
227,meadow lakes,61.6247,-149.6011,12.73,93,100,2.06,US,1720336373
228,chonchi,-42.6128,-73.8092,6.18,97,99,0.16,CL,1720336373
229,callao,-12.0667,-77.15,18.57,82,100,5.14,PE,1720336373
230,mount isa,-20.7333,139.5,28.87,39,66,2.57,AU,1720336312
231,qamdo,31.1667,97.2333,21.39,33,99,2.81,CN,1720336373
232,bubaque,11.2833,-15.8333,26.49,83,100,6.64,GW,1720336373
233,east london,-33.0153,27.9116,20.52,18,0,7.2,ZA,1720336374
234,kisaran,2.9845,99.6158,32.36,54,100,2.22,ID,1720336374
235,katras,23.8,86.2833,34.67,50,99,2.59,IN,1720336374
236,cockburn town,21.4612,-71.1419,27.68,89,42,8.91,TC,1720336374
237,vila franca do campo,37.7167,-25.4333,20.23,99,63,1.96,PT,1720336374
238,svetlyy,54.675,20.1347,16.03,95,100,3.17,RU,1720336374
239,weno,7.4515,151.8468,27.97,78,100,3.09,FM,1720336375
240,hermiston,45.8404,-119.2895,25.39,18,2,3.28,US,1720336363
241,enewetak,11.3474,162.3373,28.75,78,87,6.48,MH,1720336375
242,essaouira,31.5125,-9.77,19.8,81,0,8.78,MA,1720336375
243,khandyga,62.6667,135.6,19.46,46,98,1.3,RU,1720336376
244,nagai,38.1036,140.035,27.63,71,91,5.87,JP,1720336376
245,fortuna,40.5982,-124.1573,15.19,95,0,0.0,US,1720336230
246,st. john's,47.5649,-52.7093,15.71,88,100,2.24,CA,1720336290
247,tonghua,41.7201,125.9219,19.99,93,88,0.54,CN,1720336376
248,ballina,-28.8667,153.5667,15.43,70,41,3.59,AU,1720336376
249,nema,57.5067,50.5011,22.2,59,7,6.28,RU,1720336377
250,palmas,-10.2128,-48.3603,19.93,83,0,1.54,BR,1720336377
251,minas de marcona,-15.2119,-75.1103,10.65,91,80,4.82,PE,1720336377
252,san juan bautista,-14.0108,-75.7358,17.16,73,100,2.35,PE,1720336377
253,shijiazhuang,38.0414,114.4786,34.79,40,98,2.12,CN,1720336377
254,settat,33.0007,-7.6204,18.9,73,74,3.91,MA,1720336378
255,flying fish cove,-10.4217,105.6791,25.82,94,100,7.2,CX,1720336378
256,seneca,41.1167,-83.1166,18.87,91,0,1.44,US,1720336378
257,aldinga beach,-35.2793,138.4604,14.9,82,48,6.55,AU,1720336378
258,broken hill,-31.95,141.4333,10.43,96,100,9.76,AU,1720336378
259,al jawf,29.5,38.75,30.86,28,2,4.28,SA,1720336379
260,hilo,19.7297,-155.09,23.86,89,100,2.06,US,1720336379
261,sabang,5.8933,95.3214,27.88,79,97,7.75,ID,1720336379
262,mar del plata,-38.0023,-57.5575,3.94,92,100,1.34,AR,1720336379
263,mazamari,-11.3258,-74.5308,21.18,81,100,0.62,PE,1720336379
264,uturoa,-16.7333,-151.4333,26.6,78,8,8.96,PF,1720336379
265,huilong,31.8111,121.655,33.73,63,100,1.92,CN,1720336380
266,toungo,8.1167,12.05,23.03,89,100,0.85,NG,1720336380
267,onguday,50.75,86.15,24.55,47,27,1.72,RU,1720336380
268,portland,45.5234,-122.6762,24.77,57,0,0.45,US,1720336363
269,craig,40.5153,-107.5464,11.97,47,0,0.0,US,1720336380
270,tabas,33.5959,56.9244,36.63,11,11,2.63,IR,1720336380
271,boende,-0.2167,20.8667,26.67,68,94,1.49,CD,1720336381
272,kualakapuas,-3.0091,114.3876,29.62,72,64,2.04,ID,1720336381
273,pindwara,24.8,73.0667,34.24,50,100,6.23,IN,1720336381
274,melekeok village,7.4957,134.6367,30.31,74,75,3.09,PW,1720336381
275,utrik,11.2278,169.8474,28.12,80,99,7.12,MH,1720336381
276,carl junction,37.1767,-94.5655,22.38,71,0,3.55,US,1720336381
277,santa terezinha,-29.9002,-50.0904,11.1,90,100,2.61,BR,1720336382
278,bure,10.7,37.0667,16.7,90,100,1.82,ET,1720336382
279,yeppoon,-23.1333,150.7333,21.81,72,0,7.49,AU,1720336382
280,manokwari,-0.8667,134.0833,28.88,67,98,1.73,ID,1720336382
281,okhotsk,59.3833,143.3,13.1,80,17,4.09,RU,1720336382
282,igarka,67.4667,86.5833,17.55,60,77,4.77,RU,1720336383
283,mountain home,43.133,-115.6912,20.01,26,0,2.57,US,1720336383
284,independence,39.0911,-94.4155,22.66,73,82,3.56,US,1720336383
285,olyokminsk,60.3736,120.4264,27.27,25,51,2.67,RU,1720336383
286,vilyuchinsk,52.9306,158.4028,16.15,85,60,1.23,RU,1720336383
287,tchollire,8.4022,14.1698,24.14,76,100,1.23,CM,1720336383
288,robertsport,6.7533,-11.3686,24.83,87,100,4.59,LR,1720336384
289,holualoa,19.6228,-155.9522,21.42,84,88,2.26,US,1720336384
290,tafuna,-14.3358,-170.72,26.97,89,75,6.69,AS,1720336384
291,tirlyanskiy,54.2109,58.5806,23.71,65,52,2.69,RU,1720336384
292,alenquer,-1.9417,-54.7383,23.26,82,40,1.2,BR,1720336384
293,tual,-5.6667,132.75,26.49,86,100,6.51,ID,1720336384
294,laguna,38.421,-121.4238,31.63,42,0,3.09,US,1720336178
295,betio village,1.358,172.9211,28.02,80,100,3.16,KI,1720336385
296,amos,48.5669,-78.1162,13.04,95,0,1.02,CA,1720336385
297,baiti,13.745,-14.7482,24.12,87,100,4.63,SN,1720336385
298,poxoreo,-15.8372,-54.3892,18.18,57,1,1.53,BR,1720336385
299,kirkkonummi,60.1238,24.4385,17.28,96,100,8.0,FI,1720336385
300,mandalgovi,45.7625,106.2708,28.81,19,0,1.23,MN,1720336386
301,isangel,-19.55,169.2667,21.57,58,20,8.28,VU,1720336386
302,labytnangi,66.6572,66.4183,21.41,52,100,2.54,RU,1720336386
303,selfoss,63.9331,-20.9971,11.69,67,43,4.17,IS,1720336386
304,touros,-5.1989,-35.4608,22.84,94,60,3.58,BR,1720336386
305,vorgashor,67.5833,63.95,21.85,52,99,4.91,RU,1720336313
306,maun,-19.9833,23.4167,11.98,17,0,0.51,BW,1720336387
307,jiujiang,29.7333,115.9833,35.52,55,3,5.57,CN,1720336387
308,langepas,61.2544,75.2124,21.2,33,4,5.88,RU,1720336387
309,nueva esperanza,15.2667,-87.6,24.79,99,100,1.05,HN,1720336387
310,papao,-17.75,-149.55,24.82,77,30,9.78,PF,1720336387
311,kilindoni,-7.9139,39.6668,25.78,68,30,7.16,TZ,1720336388
312,barguzin,53.6167,109.6167,26.34,65,62,3.85,RU,1720336388
313,elmina,5.0898,-1.348,24.61,90,98,3.05,GH,1720336388
314,male,4.1748,73.5089,28.65,74,100,3.57,MV,1720336098
315,thompson,55.7435,-97.8558,16.09,94,100,3.6,CA,1720336388
316,kilimatinde,-5.85,34.95,22.42,53,70,2.61,TZ,1720336388
317,san antonio de pale,-1.4014,5.6325,23.04,87,100,6.61,GQ,1720336388
318,dondo,-19.6094,34.7431,18.73,55,0,1.7,MZ,1720336389
319,atchison,39.563,-95.1216,21.06,86,20,2.04,US,1720336389
320,waingapu,-9.6567,120.2641,28.63,59,18,8.27,ID,1720336389
321,borzya,50.3833,116.5167,32.1,32,100,2.08,RU,1720336389
322,hekimhan,38.818,37.9312,28.29,46,0,1.45,TR,1720336389
323,tocopilla,-22.092,-70.1979,15.5,76,23,3.16,CL,1720336390
324,portage la prairie,49.9728,-98.2926,15.62,63,73,1.79,CA,1720336390
325,san luis de la loma,17.2706,-100.8939,25.81,85,30,2.38,MX,1720336390
326,robore,-18.3333,-59.75,13.62,76,56,1.41,BO,1720336390
327,monrovia,6.3005,-10.7969,23.87,84,100,3.87,LR,1720336390
328,vadso,70.0744,29.7487,17.49,63,20,5.66,NO,1720336390
329,turbat,26.0023,63.044,46.09,8,18,4.12,PK,1720336391
330,xaltianguis,17.0667,-99.8333,23.73,95,94,0.98,MX,1720336391
331,ar rahad,12.7167,30.65,28.12,57,100,5.52,SD,1720336391
332,tura,25.5198,90.2201,29.94,79,51,2.38,IN,1720336391
333,nuku'alofa,-21.1333,-175.2,20.19,56,20,4.12,TO,1720336391
334,villa regina,-39.1,-67.0667,1.2,51,6,3.72,AR,1720336392
335,vernon,50.2581,-119.2691,20.42,48,0,0.49,CA,1720336203
336,suva,-18.1416,178.4415,21.71,78,75,4.12,FJ,1720336392
337,utiel,39.5667,-1.2,20.24,74,97,3.48,ES,1720336392
338,murzuq,25.9155,13.9184,31.24,24,0,4.02,LY,1720336392
339,acarau,-2.8856,-40.12,23.67,88,20,4.23,BR,1720336392
340,rice lake,45.5061,-91.7382,18.82,84,40,0.0,US,1720336393
341,remire-montjoly,4.9167,-52.2667,25.02,100,75,0.0,GF,1720336393
342,tari,-11.1105,14.3559,20.11,27,60,1.16,AO,1720336393
343,mahdia,35.5047,11.0622,25.97,67,6,4.86,TN,1720336393
344,kenai,60.5544,-151.2583,13.05,89,100,6.69,US,1720336393
345,chui,-33.6971,-53.4616,3.24,85,15,2.02,UY,1720336393
346,carutapera,-1.195,-46.02,24.27,89,18,2.58,BR,1720336394
347,qarazhal,48.0078,70.7903,22.13,55,79,8.02,KZ,1720336394
348,isabela,6.7085,121.9711,28.64,76,94,0.89,PH,1720336394
349,howard springs,-12.497,131.047,31.95,58,62,2.13,AU,1720336394
350,ruovesi,61.9858,24.0571,15.9,84,100,5.98,FI,1720336394
351,karratha,-20.7377,116.8463,22.19,36,0,3.68,AU,1720336394
352,mendefera,14.8872,38.8153,20.94,62,11,2.58,ER,1720336395
353,kargat,55.1956,80.2811,22.42,82,100,4.12,RU,1720336395
354,rundu,-17.9333,19.7667,15.54,9,5,1.52,NA,1720336395
355,ribas do rio pardo,-20.4431,-53.7592,16.69,49,100,0.32,BR,1720336395
356,ulsteinvik,62.3432,5.8487,14.86,82,100,3.58,NO,1720336396
357,languyan,5.2618,120.0807,30.52,64,32,3.13,PH,1720336396
358,egilsstadir,65.2653,-14.3948,4.95,87,100,3.09,IS,1720336396
359,asubulaq,49.5583,83.0558,22.91,56,56,2.14,KZ,1720336396
360,collie,-33.3667,116.15,14.57,70,0,5.3,AU,1720336396
361,tshikapa,-6.4167,20.8,25.93,22,11,1.91,CD,1720336396
362,dingzhou,38.5131,114.9956,35.41,39,100,3.27,CN,1720336397
363,san julian,21.0167,-102.1667,16.68,68,72,2.7,MX,1720336397
364,calama,-22.4667,-68.9333,-0.73,47,0,8.75,CL,1720336397
365,lhasa,29.65,91.1,22.53,38,77,2.91,CN,1720336397
366,sirte,31.2089,16.5887,26.61,59,0,3.66,LY,1720336397
367,alofi,-19.0595,-169.9187,21.94,78,75,6.17,NU,1720336398
368,palikir - national government center,6.9248,158.1611,27.41,89,75,1.03,FM,1720336398
369,sarmiento,-45.5882,-69.07,1.08,82,99,2.49,AR,1720336398
370,northam,51.0333,-4.2167,12.92,95,99,4.78,GB,1720336398
371,arawa,-6.2132,155.5367,25.81,91,100,1.46,PG,1720336398
372,goderich,43.7501,-81.7165,16.62,94,0,1.03,CA,1720336398
373,price,39.5994,-110.8107,20.06,22,0,1.54,US,1720336399
374,high river,50.5834,-113.8687,15.73,75,14,2.52,CA,1720336399
375,sao joao da barra,-21.6403,-41.0511,19.05,90,0,1.98,BR,1720336399
376,juneau,58.3019,-134.4197,13.0,91,100,0.0,US,1720336319
377,ulladulla,-35.35,150.4667,12.13,82,100,1.71,AU,1720336399
378,san juan de miraflores,-12.1629,-76.9635,17.71,87,100,3.55,PE,1720336399
379,tyul'gan,52.3405,56.166,26.19,62,29,3.03,RU,1720336399
380,uyuni,-20.4597,-66.825,2.85,30,1,6.44,BO,1720336400
381,constitucion,-35.3333,-72.4167,5.8,80,0,2.47,CL,1720336400
382,kismayo,-0.3582,42.5454,27.37,64,38,7.07,SO,1720336400
383,larache,35.1932,-6.1557,20.73,78,22,1.59,MA,1720336400
384,sandnessjoen,66.0217,12.6316,10.29,78,0,3.71,NO,1720336400
385,nadi,-17.8,177.4167,23.0,73,40,4.12,FJ,1720336401
386,urzhar,47.093,81.6294,29.78,29,5,3.29,KZ,1720336401
387,gamba,-2.65,10.0,22.03,87,100,2.67,GA,1720336401
388,choele choel,-39.2667,-65.6833,1.26,74,6,2.21,AR,1720336401
389,barah,13.7,30.3667,29.44,42,100,5.8,SD,1720336401
390,oranjemund,-28.55,16.4333,14.26,73,92,12.32,NA,1720336401
391,charlestown,-32.95,151.6667,15.62,90,99,0.89,AU,1720336324
392,conde,-7.2597,-34.9075,22.7,94,40,1.54,BR,1720336402
393,hobyo,5.3505,48.5268,28.75,57,14,11.39,SO,1720336402
394,niafunke,15.9322,-3.9906,29.04,57,26,6.15,ML,1720336402
395,ancud,-41.8697,-73.8203,5.74,90,63,1.68,CL,1720336402
396,morehead city,34.7229,-76.726,28.0,88,20,4.63,US,1720336402
397,fomboni,-12.28,43.7425,26.16,65,0,6.91,KM,1720336402
398,yaren,-0.5472,166.916,28.31,73,100,2.74,NR,1720336403
399,arno,60.1167,18.6333,13.77,80,46,8.41,SE,1720336403
400,flin flon,54.7682,-101.865,14.77,88,70,3.08,CA,1720336403
401,puerto carreno,6.189,-67.4859,22.7,97,100,1.17,CO,1720336403
402,magistral'nyy,56.1725,107.4458,34.13,32,20,1.17,RU,1720336403
403,idrinskoye,54.3708,92.1358,27.34,55,34,0.34,RU,1720336403
404,sierra grande,-41.606,-65.3557,-0.64,81,0,1.5,AR,1720336404
405,kruisfontein,-34.0033,24.7314,16.41,20,0,7.34,ZA,1720336404
406,pacific grove,36.6177,-121.9166,15.11,94,100,3.09,US,1720336293
407,saldanha,-33.0117,17.9442,11.03,78,100,14.88,ZA,1720336404
408,melfi,40.9965,15.6514,30.83,29,6,1.76,IT,1720336404
409,acapulco de juarez,16.8634,-99.8901,27.9,83,75,2.06,MX,1720336404
410,kavieng,-2.5744,150.7967,28.07,77,100,6.25,PG,1720336405
411,beidao,34.5686,105.8933,21.53,91,100,0.09,CN,1720336405
412,puerto baquerizo moreno,-0.9,-89.6,20.59,87,23,4.73,EC,1720336405
413,sekong,-6.3996,106.0252,31.25,57,29,0.67,ID,1720336405
414,mount pearl,47.5166,-52.7813,15.25,89,100,0.89,CA,1720336266
415,yenangyaung,20.4667,94.8833,36.47,41,92,6.46,MM,1720336405
416,potosi,-19.5836,-65.7531,3.61,29,0,2.84,BO,1720336406
417,susuman,62.7833,148.1667,10.66,89,100,2.47,RU,1720336406
418,tazacorte,28.629,-17.9293,20.54,91,75,5.14,ES,1720336406
419,imam sahib,37.189,68.9364,37.92,10,0,3.41,AF,1720336406
420,rio grande,-32.035,-52.0986,0.53,75,4,2.22,BR,1720336406
421,walvis bay,-22.9575,14.5053,12.83,82,75,3.09,NA,1720336406
422,suzun,53.7841,82.3116,26.89,54,100,1.21,RU,1720336407
423,kosh-agach,50.0,88.6667,17.62,53,68,4.28,RU,1720336407
424,akrehamn,59.2667,5.1833,12.45,82,75,9.77,NO,1720336407
425,coari,-4.085,-63.1414,23.14,78,99,0.98,BR,1720336407
426,lagos,6.5833,3.75,25.18,90,100,1.64,NG,1720335886
427,laizhou,37.1717,119.9214,31.15,60,100,1.94,CN,1720336407
428,tucumcari,35.1717,-103.725,21.91,56,0,3.09,US,1720336408
429,bel ombre,-4.6167,55.4167,27.91,89,40,3.09,SC,1720336408
430,geraldton,-28.7667,114.6,20.23,64,100,4.63,AU,1720336408
431,beitbridge,-22.2167,30.0,15.88,17,0,1.38,ZW,1720336408
432,el calafate,-50.3408,-72.2768,-2.75,79,13,1.11,AR,1720336408
433,andergrove,-21.0833,149.1833,21.47,79,47,8.25,AU,1720336408
434,trashi yangtse,27.6116,91.498,25.03,74,100,2.42,BT,1720336409
435,mount gambier,-37.8333,140.7667,12.53,62,1,3.35,AU,1720336308
436,berezovyy,51.6667,135.7,13.56,89,100,2.28,RU,1720336409
437,zhangye,38.9342,100.4517,28.72,26,100,2.87,CN,1720336409
438,sechura,-5.5569,-80.8222,18.7,86,100,5.74,PE,1720336409
439,arroio grande,-32.2375,-53.0869,2.6,93,0,1.94,BR,1720336409
440,alotau,-10.3069,150.4462,24.23,81,55,3.35,PG,1720336410
441,arroyo,41.6096,-4.7969,14.02,76,0,5.14,ES,1720336410
442,santa cruz,-17.8,-63.1667,16.7,36,75,4.63,BO,1720336163
443,nizhneangarsk,55.7833,109.55,18.14,71,57,0.83,RU,1720336410
444,griffith,41.5284,-87.4237,19.6,83,0,0.0,US,1720336410
445,duba,27.3513,35.6901,31.45,61,10,4.78,SA,1720336410
446,i-n-salah,27.1935,2.4607,36.11,12,7,3.27,DZ,1720336411
447,arraial do cabo,-22.9661,-42.0278,19.92,87,0,2.8,BR,1720336411
448,senigallia,43.7093,13.2167,27.79,55,75,2.57,IT,1720336411
449,el granada,37.5027,-122.4694,20.27,85,20,6.17,US,1720336411
450,homestead meadows north,31.8496,-106.1729,28.25,42,0,4.12,US,1720336411
451,vorkuta,67.5,64.0,21.73,53,100,5.14,RU,1720336412
452,nizao,18.25,-70.2,27.42,88,100,2.38,DO,1720336412
453,la'ie,21.6477,-157.9253,25.56,76,84,3.13,US,1720336296
454,launceston,-41.45,147.1667,9.08,81,100,0.0,AU,1720336238
455,wewak,-3.5534,143.6268,27.58,82,100,0.47,PG,1720336412
456,chattanooga,35.0456,-85.3097,23.86,84,100,1.17,US,1720336243
457,pisco,-13.7,-76.2167,14.03,94,85,1.03,PE,1720336413
458,arteaga,18.4667,-102.4167,20.35,97,100,0.96,MX,1720336413
459,zuni pueblo,35.0725,-108.8506,11.35,17,0,1.26,US,1720336413
460,bobo-dioulasso,11.1771,-4.2979,22.25,94,40,2.57,BF,1720336413
461,kirakira,-10.4544,161.9205,25.31,89,100,3.6,SB,1720336413
462,platnirovskaya,45.3953,39.3842,31.62,41,100,5.92,RU,1720336413
463,ahvaz,31.3203,48.6693,38.97,19,0,2.06,IR,1720336414
464,bandundu,-3.3167,17.3667,25.79,53,18,2.94,CD,1720336414
465,pudozh,61.8099,36.5345,20.44,52,49,4.65,RU,1720336414
466,wamba,8.9333,8.6,24.15,86,100,0.25,NG,1720336414
467,rongelap,11.1635,166.8941,28.68,76,6,7.88,MH,1720336414
468,masterton,-40.9597,175.6575,6.6,91,1,1.78,NZ,1720336415
469,konarka,19.9,86.1167,31.22,66,100,5.51,IN,1720336415
470,harnosand,62.6323,17.9379,14.0,97,100,1.77,SE,1720336415
471,ola,59.5833,151.2833,12.29,89,100,2.56,RU,1720336415
472,anaconda,46.1285,-112.9423,17.55,65,84,1.23,US,1720336415
473,soe,-9.8607,124.284,25.87,53,33,3.69,ID,1720336416
474,hyesan,41.4017,128.1778,19.88,92,85,0.66,KP,1720336416
475,pizarro,4.9533,-77.366,25.53,88,98,1.22,CO,1720336416
476,choibalsan,48.0667,114.5,31.86,27,100,1.43,MN,1720336416
477,puerto rico,-26.796,-55.024,10.98,100,75,0.42,AR,1720336365
478,nikolayevsk-on-amure,53.1406,140.73,12.43,95,100,1.76,RU,1720336416
479,saint-hippolyte,42.7833,2.9667,19.66,67,0,4.63,FR,1720336417
480,bardai,11.65,7.2333,23.49,82,100,3.55,NG,1720336417
481,palmer,42.1584,-72.3287,24.35,80,100,0.0,US,1720336417
482,massenya,11.4039,16.1705,25.21,69,100,4.32,TD,1720336417
483,okahandja,-21.9833,16.9167,14.23,29,0,3.2,NA,1720336417
484,tazovsky,67.4667,78.7,14.58,62,28,6.65,RU,1720336383
485,aykhal,66.0,111.5,21.7,59,100,7.14,RU,1720336401
486,amungan,15.3652,119.9582,29.94,73,59,2.99,PH,1720336418
487,usogorsk,63.4106,48.6872,21.24,42,0,3.56,RU,1720336418
488,nsanje,-16.92,35.262,22.12,46,0,1.52,MW,1720336418
489,berdigestyakh,62.0989,126.6992,24.61,31,40,1.56,RU,1720336418
490,magadi,12.9667,77.2333,28.09,68,100,6.38,IN,1720336418
491,lake havasu city,34.4839,-114.3224,39.34,23,0,3.13,US,1720336401
492,petawawa,45.9001,-77.3328,16.99,95,0,1.58,CA,1720336419
493,yanam,16.7333,82.2167,26.23,87,100,2.68,IN,1720336419
494,pangai,-19.8,-174.35,22.5,64,98,10.92,TO,1720336419
495,as sulayyil,20.4607,45.5779,39.14,6,91,2.92,SA,1720336419
496,champerico,14.3,-91.9167,25.04,83,84,3.7,GT,1720336419
497,ayr,55.4627,-4.6339,13.06,76,40,2.57,GB,1720336420
498,inhambane,-23.865,35.3833,20.23,57,0,2.0,MZ,1720336420
499,arkhangel'sk,64.5401,40.5433,20.06,60,20,5.0,RU,1720336420
500,belebey,54.1167,54.1167,26.19,63,10,3.5,RU,1720336420
501,nakamura,32.9833,132.9333,33.93,50,8,2.35,JP,1720336420
502,havre,49.5833,0.3333,13.87,77,20,5.66,FR,1720336420
503,novooleksiyivka,46.2269,34.6428,29.63,37,80,5.95,UA,1720336421
504,seydi,39.4816,62.9137,36.52,19,0,6.88,TM,1720336421
505,concepcion del uruguay,-32.4825,-58.2372,2.28,81,9,2.66,AR,1720336421
506,mezhdurechenskiy,59.6,65.9333,24.65,39,56,3.16,RU,1720336421
507,lyantor,61.6195,72.1555,21.12,42,14,6.42,RU,1720336422
508,banff,51.1762,-115.5698,11.21,62,6,0.0,CA,1720336422
509,nogliki,51.8333,143.1667,11.2,92,100,4.28,RU,1720336422
510,gaspe,48.8334,-64.4819,17.12,100,75,1.03,CA,1720336422
511,penzance,50.1186,-5.5371,14.38,81,88,7.07,GB,1720336422
512,kuqa,41.7278,82.9364,30.58,16,0,2.08,CN,1720336422
513,zhanaozen,43.3,52.8,37.11,15,1,2.96,KZ,1720336423
514,zhuhai,22.2769,113.5678,32.88,79,40,3.6,CN,1720336423
515,nizhnesortymskiy,62.4397,71.7603,21.46,39,12,5.02,RU,1720336423
516,zayed city,24.3768,54.589,42.08,12,0,2.57,AE,1720336423
517,sodra sandby,56.5667,16.6167,16.61,71,97,8.41,SE,1720336423
518,port sudan,19.6175,37.2164,36.93,39,100,3.98,SD,1720336423
519,daru,-9.0763,143.2092,25.18,84,100,8.04,PG,1720336424
520,aridaia,40.9731,22.0564,28.92,39,0,1.73,GR,1720336424
521,glace bay,46.1969,-59.957,19.32,98,100,4.12,CA,1720336424
522,senador jose porfirio,-2.5908,-51.9542,23.04,85,10,1.08,BR,1720336424
523,dalbandin,28.8947,64.4101,38.27,8,0,2.6,PK,1720336424
524,newton,42.337,-71.2092,24.22,91,0,3.6,US,1720336424
525,tyukhtet,56.5389,89.3011,23.97,75,99,2.39,RU,1720336425
526,salvador,13.8333,-88.9167,21.14,100,100,1.29,SV,1720336425
527,pamekasan,-7.1568,113.4746,31.59,100,45,3.57,ID,1720336425
528,severnoye,56.3491,78.3619,18.94,76,100,6.01,RU,1720336425
529,mossel bay,-34.1831,22.146,15.96,57,100,6.92,ZA,1720336425
530,hami,42.8,93.45,30.16,29,100,9.27,CN,1720336426
531,pandan,14.0453,124.1694,28.18,83,98,4.17,PH,1720336426
532,crane,31.3974,-102.3501,25.53,54,2,5.91,US,1720336426
533,santa ana,33.7456,-117.8678,22.01,88,75,2.06,US,1720336426
534,midelt,32.6852,-4.7451,19.64,39,0,3.06,MA,1720336426
535,kanniyakumari,8.0833,77.5667,33.25,69,99,9.1,IN,1720336426
536,luau,-10.7073,22.2247,19.29,24,4,2.02,AO,1720336427
537,sepuka,-4.75,34.5333,22.09,51,100,3.36,TZ,1720336427
538,leskovac,42.9981,21.9461,26.77,45,0,0.73,RS,1720336427
539,severo-yeniseyskiy,60.3725,93.0408,24.56,45,55,3.24,RU,1720336427
540,uitenhage,-33.7576,25.3971,18.77,26,0,3.87,ZA,1720336427
541,les sables-d'olonne,46.6667,-1.8333,15.44,68,100,4.52,FR,1720336427
542,malyye derbety,47.9547,44.6808,35.4,26,87,4.03,RU,1720336428
543,kidal,18.4411,1.4078,32.23,34,82,6.85,ML,1720336428
544,kirkwall,58.9848,-2.9587,10.03,93,75,6.69,GB,1720336428
545,siparia,10.1333,-61.5,25.08,92,51,4.15,TT,1720336428
